[
  {
    "name": "Hope House",
    "address": "246 2nd St",
    "city": "Jersey City",
    "state": "NJ",
    "zipCode": "07302",
    "hours": "TBA",
    "phoneNumber": "(201) 420-1070",
    "volunteerStatus": "open",
    "mapImageSrc": "https://www.google.com/maps/embed?pb=!1m18!1m12!1m3!1d3023.7922322291006!2d-74.0461790239737!3d40.72259007139209!2m3!1f0!2f0!3f0!3m2!1i1024!2i768!4f13.1!3m3!1m2!1s0x89c250b2ef066f1b%3A0x8c2dc2f03d9fa372!2sHope%20House!5e0!3m2!1sen!2sus!4v1696633581512!5m2!1sen!2sus"
  },
  {
    "name": "House of Faith Inc",
    "address": "244 Ege Ave",
    "city": "Jersey City",
    "state": "NJ",
    "zipCode": "07304",
    "hours": "TBA",
    "phoneNumber": "(201) 435-6100",
    "volunteerStatus": "open",
    "mapImageSrc": "https://www.google.com/maps/embed?pb=!1m18!1m12!1m3!1d3024.0931554312047!2d-74.08855572419174!3d40.715965737373196!2m3!1f0!2f0!3f0!3m2!1i1024!2i768!4f13.1!3m3!1m2!1s0x89c251248f555ce7%3A0x5ea1d703ed7a987b!2sHouse%20of%20Faith%20Inc!5e0!3m2!1sen!2sus!4v1700422530182!5m2!1sen!2sus"
  },
  {
    "name": "St. Lucy's Emergency Shelter",
    "address": "619 Grove St",
    "city": "Jersey City",
    "state": "NJ",
    "zipCode": "07310",
    "hours": "24 hours",
    "phoneNumber": "(201) 656-7201",
    "volunteerStatus": "open",
    "mapImageSrc": "https://www.google.com/maps/embed?pb=!1m18!1m12!1m3!1d3023.3225446744864!2d-74.04123599999996!3d40.73292769999999!2m3!1f0!2f0!3f0!3m2!1i1024!2i768!4f13.1!3m3!1m2!1s0x89c25750106ec765%3A0x1bdd10a4d46c27bb!2sSt.%20Lucy&#39;s%20Emergency%20Shelter!5e0!3m2!1sen!2sus!4v1696651784124!5m2!1sen!2sus"
  },
  {
    "name": "The Hoboken Shelter",
    "address": "300 Bloomfield St",
    "city": "Hoboken",
    "state": "NJ",
    "zipCode": "07030",
    "hours": "Sun-Sat 9AM–9PM",
    "phoneNumber": "(201) 656-5069",
    "volunteerStatus": "open",
    "mapImageSrc": "https://www.google.com/maps/embed?pb=!1m18!1m12!1m3!1d3022.9862943617245!2d-74.03124009999999!3d40.740327099999995!2m3!1f0!2f0!3f0!3m2!1i1024!2i768!4f13.1!3m3!1m2!1s0x89c2575f90a7217f%3A0x63e7f0e630ce1502!2sThe%20Hoboken%20Shelter!5e0!3m2!1sen!2sus!4v1700425371990!5m2!1sen!2sus"
  },
  {
    "name": "Answers Moving Forward Inc",
    "address": "712 Springfield Ave",
    "city": "Newark",
    "state": "NJ",
    "zipCode": "07103",
    "hours": "TBA",
    "phoneNumber": "(973) 416-2679",
    "volunteerStatus": "open",
    "mapImageSrc": "https://www.google.com/maps/embed?pb=!1m18!1m12!1m3!1d12093.861109013518!2d-74.22493206743312!3d40.729786444157774!2m3!1f0!2f0!3f0!3m2!1i1024!2i768!4f13.1!3m3!1m2!1s0x89c2534a5e7a4b5f%3A0x31b87a5bcae994d7!2sAnswers%20Moving%20Forward%20Inc!5e0!3m2!1sen!2sus!4v1700467017474!5m2!1sen!2sus"
  },
  {
    "name": "Apostle's House",
    "address": "513 Avon Ave",
    "city": "Newark",
    "state": "NJ",
    "zipCode": "07108",
    "hours": "TBA",
    "phoneNumber": "(973) 375-7447",
    "volunteerStatus": "open",
    "mapImageSrc": "https://www.google.com/maps/embed?pb=!1m18!1m12!1m3!1d24188.039560595178!2d-74.23257506044922!3d40.7289134!2m3!1f0!2f0!3f0!3m2!1i1024!2i768!4f13.1!3m3!1m2!1s0x89c2534a80ef7efd%3A0xdab38b8c41abd51b!2sApostle&#39;s%20House!5e0!3m2!1sen!2sus!4v1700519470870!5m2!1sen!2sus"
  },
  {
    "name": "Circle of Life Shelter",
    "address": "55 Reeves Pl",
    "city": "Newark",
    "state": "NJ",
    "zipCode": "07108",
    "hours": "TBA",
    "phoneNumber": "(862) 763-4859",
    "volunteerStatus": "open",
    "mapImageSrc": "https://www.google.com/maps/embed?pb=!1m18!1m12!1m3!1d3024.008789757241!2d-74.20951079999999!3d40.717822999999996!2m3!1f0!2f0!3f0!3m2!1i1024!2i768!4f13.1!3m3!1m2!1s0x89c2533035bf1ac3%3A0x41068aa355a7869c!2sCircle%20of%20Life%20Shelter!5e0!3m2!1sen!2sus!4v1696652289388!5m2!1sen!2sus"
  },
  {
    "name": "Helping the Homeless Inc",
    "address": "269 Mt Prospect Ave",
    "city": "Newark",
    "state": "NJ",
    "zipCode": "07104",
    "hours": "TBA",
    "phoneNumber": "(973) 732-9200",
    "volunteerStatus": "open",
    "mapImageSrc": "https://www.google.com/maps/embed?pb=!1m18!1m12!1m3!1d3022.0563075452883!2d-74.17576362324562!3d40.76078627138635!2m3!1f0!2f0!3f0!3m2!1i1024!2i768!4f13.1!3m3!1m2!1s0x89c2548ae7074d43%3A0x8340fe989350fcb4!2sHelping%20the%20Homeless%20Inc!5e0!3m2!1sen!2sus!4v1698448267457!5m2!1sen!2sus"
  },
  {
    "name": "New Community Harmony House",
    "address": "278 S Orange Ave # 282",
    "city": "Newark",
    "state": "NJ",
    "zipCode": "07103",
    "hours": "Mon–Fri 9AM–6PM",
    "phoneNumber": "(973) 623-8555",
    "volunteerStatus": "open",
    "mapImageSrc": "https://www.google.com/maps/embed?pb=!1m18!1m12!1m3!1d3023.046452152958!2d-74.19841562324649!3d40.73900337138962!2m3!1f0!2f0!3f0!3m2!1i1024!2i768!4f13.1!3m3!1m2!1s0x89c2535dbe284bfd%3A0xd12c1a894ae0f475!2sNew%20Community%20Harmony%20House!5e0!3m2!1sen!2sus!4v1698448228344!5m2!1sen!2sus"
  },
  {
    "name": "Newly Destinied Inc",
    "address": "1114 Broad St",
    "city": "Newark",
    "state": "NJ",
    "zipCode": "07114",
    "hours": "TBA",
    "phoneNumber": "(973) 242-8088",
    "volunteerStatus": "open",
    "mapImageSrc": "https://www.google.com/maps/embed?pb=!1m18!1m12!1m3!1d3023.749380955371!2d-74.17891!3d40.7235333!2m3!1f0!2f0!3f0!3m2!1i1024!2i768!4f13.1!3m3!1m2!1s0x89c253779cdd879f%3A0xa2aabf1d22639bcb!2sNewly%20Destinied%20Inc!5e0!3m2!1sen!2sus!4v1700466194256!5m2!1sen!2sus"
  },
  {
    "name": "St Ann's Shelter",
    "address": "366 S 7th St",
    "city": "Newark",
    "state": "NJ",
    "zipCode": "07103",
    "hours": "TBA",
    "phoneNumber": "(973) 242-6646",
    "volunteerStatus": "open",
    "mapImageSrc": "https://www.google.com/maps/embed?pb=!1m18!1m12!1m3!1d12092.736554962561!2d-74.20941076742915!3d40.735973544143!2m3!1f0!2f0!3f0!3m2!1i1024!2i768!4f13.1!3m3!1m2!1s0x89c253434c4f1e45%3A0x7bcb7a24d9d432d3!2sSt%20Ann&#39;s%20Shelter!5e0!3m2!1sen!2sus!4v1700466341531!5m2!1sen!2sus"
  },
  {
    "name": "St Rocco's",
    "address": "368 S 7th St",
    "city": "Newark",
    "state": "NJ",
    "zipCode": "07103",
    "hours": "24 hours",
    "phoneNumber": "(973) 286-4175",
    "volunteerStatus": "open",
    "mapImageSrc": "https://www.google.com/maps/embed?pb=!1m18!1m12!1m3!1d12092.72568515451!2d-74.20951766742901!3d40.73603334414288!2m3!1f0!2f0!3f0!3m2!1i1024!2i768!4f13.1!3m3!1m2!1s0x89c253434c33f66f%3A0x61b448c26502c183!2sSt%20Rocco&#39;s!5e0!3m2!1sen!2sus!4v1700466891454!5m2!1sen!2sus"
  },
  {
    "name": "Covenant House New Jersey",
    "address": "929 Atlantic Ave",
    "city": "Atlantic City",
    "state": "NJ",
    "zipCode": "08401",
    "hours": "24 hours",
    "phoneNumber": "(609) 348-4070",
    "volunteerStatus": "open",
    "mapImageSrc": "https://www.google.com/maps/embed?pb=!1m18!1m12!1m3!1d3023.296554424766!2d-74.17901942324674!3d40.733499671390454!2m3!1f0!2f0!3f0!3m2!1i1024!2i768!4f13.1!3m3!1m2!1s0x89c25379ffcd75df%3A0x86f98001af83925b!2sCovenant%20House%20New%20Jersey!5e0!3m2!1sen!2sus!4v1698447749360!5m2!1sen!2sus"
  },
  {
    "name": "Atlantic City Rescue Mission",
    "address": "2009 Bacharach Blvd",
    "city": "Atlantic City",
    "state": "NJ",
    "zipCode": "08401",
    "hours": "24 hours",
    "phoneNumber": "(609) 345-5517",
    "volunteerStatus": "open",
    "mapImageSrc": "https://www.google.com/maps/embed?pb=!1m18!1m12!1m3!1d3084.617512740823!2d-74.4426659232994!3d39.36489747162805!2m3!1f0!2f0!3f0!3m2!1i1024!2i768!4f13.1!3m3!1m2!1s0x89c0ee44cefcc917%3A0xd62bee2e0bed2903!2sAtlantic%20City%20Rescue%20Mission!5e0!3m2!1sen!2sus!4v1698448005071!5m2!1sen!2sus"
  },
  {
    "name": "Turning Point Day Center for the Homeless",
    "address": "1717 Leeds Ave",
    "city": "Atlantic City",
    "state": "NJ",
    "zipCode": "08401",
    "hours": "Mon-Sat 9AM-3PM",
    "phoneNumber": "(609) 246-6080",
    "volunteerStatus": "open",
    "mapImageSrc": "https://www.google.com/maps/embed?pb=!1m18!1m12!1m3!1d781926.0888507956!2d-74.98915220228206!3d40.04420070337755!2m3!1f0!2f0!3f0!3m2!1i1024!2i768!4f13.1!3m3!1m2!1s0x89c0ee45ca300001%3A0x2fa51b6eb7e8b912!2sTurning%20Point%20Day%20Center%20for%20the%20Homeless!5e0!3m2!1sen!2sus!4v1700532124975!5m2!1sen!2sus"
  },
  {
    "name": "Rescue Mission",
    "address": "98 Carroll St",
    "city": "Trenton",
    "state": "NJ",
    "zipCode": "08609",
    "hours": "Sun–Sat 6AM–4PM",
    "phoneNumber": "(609) 695-1436",
    "volunteerStatus": "open",
    "mapImageSrc": "https://www.google.com/maps/embed?pb=!1m18!1m12!1m3!1d3046.3660883006637!2d-74.75923242326654!3d40.22316187147134!2m3!1f0!2f0!3f0!3m2!1i1024!2i768!4f13.1!3m3!1m2!1s0x89c159b5817ad9ad%3A0x1077cdae4a514cb1!2sRescue%20Mission!5e0!3m2!1sen!2sus!4v1698447938412!5m2!1sen!2sus"
  },
  {
    "name": "Amani House",
    "address": "518-520 Martin Luther King Jr Blvd",
    "city": "Trenton",
    "state": "NJ",
    "zipCode": "08618",
    "hours": "24 hours",
    "phoneNumber": "(609) 393-3168",
    "volunteerStatus": "open",
    "mapImageSrc": "https://www.google.com/maps/embed?pb=!1m18!1m12!1m3!1d3046.098861616217!2d-74.76579832326634!3d40.22910407147039!2m3!1f0!2f0!3f0!3m2!1i1024!2i768!4f13.1!3m3!1m2!1s0x89c1583365c18459%3A0x28ffe24e8c1411c9!2sAmani%20House%20-%20Volunteers%20of%20America%20Delaware%20Valley!5e0!3m2!1sen!2sus!4v1698448059863!5m2!1sen!2sus"
  },
  {
    "name": "Anchor House",
    "address": "482 Centre St",
    "city": "Trenton",
    "state": "NJ",
    "zipCode": "08611",
    "hours": "TBA",
    "phoneNumber": "(609) 396-8329",
    "volunteerStatus": "open",
    "mapImageSrc": "https://www.google.com/maps/embed?pb=!1m18!1m12!1m3!1d3047.148245639223!2d-74.75818319999999!3d40.205765199999995!2m3!1f0!2f0!3f0!3m2!1i1024!2i768!4f13.1!3m3!1m2!1s0x89c159eaa4407971%3A0x93e48d01d6aa0ea1!2sAnchor%20House!5e0!3m2!1sen!2sus!4v1698449546769!5m2!1sen!2sus"
  },
  {
    "name": "Princeton Human Services",
    "address": "1 Monument Dr",
    "city": "Princeton",
    "state": "NJ",
    "zipCode": "08540",
    "hours": "Mon–Fri 9AM–5PM",
    "phoneNumber": "(609) 688-2055",
    "volunteerStatus": "open",
    "mapImageSrc": "https://www.google.com/maps/embed?pb=!1m18!1m12!1m3!1d3040.7340704175585!2d-74.66865202326173!3d40.34824487145071!2m3!1f0!2f0!3f0!3m2!1i1024!2i768!4f13.1!3m3!1m2!1s0x89c3e692d935c3cd%3A0xc31a4268e148a4a2!2sPrinceton%20Human%20Services!5e0!3m2!1sen!2sus!4v1698448333414!5m2!1sen!2sus"
  },
  {
    "name": "HomeFront",
    "address": "1880 Princeton Ave",
    "city": "Lawrence Township",
    "state": "NJ",
    "zipCode": "08648",
    "hours": "Mon–Fri 9AM–5PM, Sat 9AM–12PM",
    "phoneNumber": "(609) 989-9417",
    "volunteerStatus": "open",
    "mapImageSrc": "https://www.google.com/maps/embed?pb=!1m18!1m12!1m3!1d3015.1899666487525!2d-74.17360912323977!3d40.91158047136417!2m3!1f0!2f0!3f0!3m2!1i1024!2i768!4f13.1!3m3!1m2!1s0x89c2fdcd33e9ef33%3A0xc1750bfa5e6d189!2sEva&#39;s%20Emergency%20Overnight!5e0!3m2!1sen!2sus!4v1698448444487!5m2!1sen!2sus"
  },
  {
    "name": "Eva's Emergency Overnight",
    "address": "31 Jackson St",
    "city": "Paterson",
    "state": "NJ",
    "zipCode": "07501",
    "hours": "TBA",
    "phoneNumber": "(973) 279-1005",
    "volunteerStatus": "open",
    "mapImageSrc": "https://www.google.com/maps/embed?pb=!1m18!1m12!1m3!1d3015.1899666487525!2d-74.17360912323977!3d40.91158047136417!2m3!1f0!2f0!3f0!3m2!1i1024!2i768!4f13.1!3m3!1m2!1s0x89c2fdcd33e9ef33%3A0xc1750bfa5e6d189!2sEva&#39;s%20Emergency%20Overnight!5e0!3m2!1sen!2sus!4v1698448510844!5m2!1sen!2sus"
  },
  {
    "name": "Eva's Village",
    "address": "393 Main St",
    "city": "Paterson",
    "state": "NJ",
    "zipCode": "07501",
    "hours": "Mon-Fri 9AM-5PM",
    "phoneNumber": "(973) 523-6220",
    "volunteerStatus": "open",
    "mapImageSrc": "https://www.google.com/maps/embed?pb=!1m18!1m12!1m3!1d12060.63717573!2d-74.18204973905499!3d40.91225305776267!2m3!1f0!2f0!3f0!3m2!1i1024!2i768!4f13.1!3m3!1m2!1s0x89c2fdcd3d5f1933%3A0x31352516ad9d43b7!2sEva&#39;s%20Village!5e0!3m2!1sen!2sus!4v1700532703222!5m2!1sen!2sus"
  },
  {
    "name": "Good Shepherd-Mission Inc",
    "address": "336 Broadway",
    "city": "Paterson",
    "state": "NJ",
    "zipCode": "07501",
    "hours": "TBA",
    "phoneNumber": "(973) 742-9244",
    "volunteerStatus": "open",
    "mapImageSrc": "https://www.google.com/maps/embed?pb=!1m18!1m12!1m3!1d12059.534758474108!2d-74.1705893390503!3d40.91829605626654!2m3!1f0!2f0!3f0!3m2!1i1024!2i768!4f13.1!3m3!1m2!1s0x89c2fc481c121c75%3A0x753e9a181e6da68a!2sGood%20Shepherd-Mission%20Inc!5e0!3m2!1sen!2sus!4v1700533006687!5m2!1sen!2sus"
  },
  {
    "name": "Hispanic Multi Purpose Services Center",
    "address": "911 E 23rd St # C",
    "city": "Paterson",
    "state": "NJ",
    "zipCode": "07513",
    "hours": "Mon–Fri 8:30AM–4:30PM",
    "phoneNumber": "(973) 684-3320",
    "volunteerStatus": "open",
    "mapImageSrc": "https://www.google.com/maps/embed?pb=!1m18!1m12!1m3!1d3015.309112612222!2d-74.15566102323987!3d40.90896777136467!2m3!1f0!2f0!3f0!3m2!1i1024!2i768!4f13.1!3m3!1m2!1s0x89c2fc3c7e3f47a7%3A0x84a784c853e45294!2sHispanic%20Multi%20Purpose%20Services%20Center!5e0!3m2!1sen!2sus!4v1698448579662!5m2!1sen!2sus"
  }
]
